[
  {
    "date": "11 Jun",
    "name": "Lindos, Rhodes",
    "phase": "onboard",
    "lat": 36.091,
    "lng": 28.086,
    "location": {
      "country": "Greece",
      "region": "South Aegean",
      "island": "Rhodes",
      "nearestSettlement": "Lindos",
      "displayName": "Rhodes, near Lindos, Greece",
      "lookupSource": "manual backfill for v2.1.0; future entries can be generated by reverse geocoding"
    }
  },
  {
    "date": "11-12 Jun",
    "name": "Chalki",
    "phase": "onboard",
    "lat": 36.222,
    "lng": 27.611,
    "location": {
      "country": "Greece",
      "region": "South Aegean",
      "island": "Chalki",
      "nearestSettlement": "Emporio / Chalki Harbour",
      "displayName": "Chalki, near Emporio / Chalki Harbour, Greece",
      "lookupSource": "manual backfill for v2.1.0; future entries can be generated by reverse geocoding"
    }
  },
  {
    "date": "12-13 Jun",
    "name": "Symi",
    "phase": "onboard",
    "lat": 36.617,
    "lng": 27.838,
    "location": {
      "country": "Greece",
      "region": "South Aegean",
      "island": "Symi",
      "nearestSettlement": "Symi Harbour / Gialos",
      "displayName": "Symi, near Symi Harbour / Gialos, Greece",
      "lookupSource": "manual backfill for v2.1.0; future entries can be generated by reverse geocoding"
    }
  },
  {
    "date": "15-16 Jun",
    "name": "Nisyros",
    "phase": "onboard",
    "lat": 36.611,
    "lng": 27.133,
    "location": {
      "country": "Greece",
      "region": "South Aegean",
      "island": "Nisyros",
      "nearestSettlement": "Mandraki",
      "displayName": "Nisyros, near Mandraki, Greece",
      "lookupSource": "manual backfill for v2.1.0; future entries can be generated by reverse geocoding"
    }
  },
  {
    "date": "16-18 Jun",
    "name": "Kos",
    "phase": "onboard",
    "lat": 36.893,
    "lng": 27.289,
    "location": {
      "country": "Greece",
      "region": "South Aegean",
      "island": "Kos",
      "nearestSettlement": "Kos Town",
      "displayName": "Kos, near Kos Town, Greece",
      "lookupSource": "manual backfill for v2.1.0; future entries can be generated by reverse geocoding"
    }
  },
  {
    "date": "17 Jun",
    "name": "Cameron & Sophie join",
    "phase": "milestone",
    "lat": 36.893,
    "lng": 27.289,
    "location": {
      "country": "Greece",
      "region": "South Aegean",
      "island": "Kos",
      "nearestSettlement": "Kos Town",
      "displayName": "Kos, near Kos Town, Greece",
      "lookupSource": "manual backfill for v2.1.0; future entries can be generated by reverse geocoding"
    }
  },
  {
    "date": "18-19 Jun",
    "name": "Lipsi",
    "phase": "onboard",
    "lat": 37.295,
    "lng": 26.766,
    "location": {
      "country": "Greece",
      "region": "South Aegean",
      "island": "Lipsi",
      "nearestSettlement": "Lipsi Harbour",
      "displayName": "Lipsi, near Lipsi Harbour, Greece",
      "lookupSource": "manual backfill for v2.1.0; future entries can be generated by reverse geocoding"
    }
  },
  {
    "date": "19-21 Jun",
    "name": "Patmos",
    "phase": "onboard",
    "lat": 37.324,
    "lng": 26.545,
    "location": {
      "country": "Greece",
      "region": "South Aegean",
      "island": "Patmos",
      "nearestSettlement": "Skala",
      "displayName": "Patmos, near Skala, Greece",
      "lookupSource": "manual backfill for v2.1.0; future entries can be generated by reverse geocoding"
    }
  },
  {
    "date": "22 Jun",
    "name": "Katapola, Amorgos",
    "phase": "onboard",
    "lat": 36.827,
    "lng": 25.863,
    "location": {
      "country": "Greece",
      "region": "South Aegean",
      "island": "Amorgos",
      "nearestSettlement": "Katapola",
      "displayName": "Amorgos, near Katapola, Greece",
      "lookupSource": "manual backfill for v2.1.0; future entries can be generated by reverse geocoding"
    }
  },
  {
    "date": "22-23 Jun",
    "name": "Ios",
    "phase": "onboard",
    "lat": 36.722,
    "lng": 25.272,
    "location": {
      "country": "Greece",
      "region": "South Aegean",
      "island": "Ios",
      "nearestSettlement": "Ios Port / Ormos",
      "displayName": "Ios, near Ios Port / Ormos, Greece",
      "lookupSource": "manual backfill for v2.1.0; future entries can be generated by reverse geocoding"
    }
  },
  {
    "date": "23 Jun",
    "name": "Ios departure AIS",
    "phase": "ais",
    "lat": 36.71285,
    "lng": 25.28499,
    "location": {
      "country": "Greece",
      "region": "South Aegean",
      "island": "Ios",
      "nearestSettlement": "Ios Port / Ormos",
      "displayName": "Ios, near Ios Port / Ormos, Greece",
      "lookupSource": "manual backfill for v2.1.0; future entries can be generated by reverse geocoding"
    }
  },
  {
    "date": "24 Jun",
    "name": "Sea of Crete AIS marker",
    "phase": "ais",
    "lat": 36.6513,
    "lng": 24.3377,
    "location": {
      "country": "Greece",
      "region": "South Aegean",
      "seaArea": "Sea of Crete / Cyclades area",
      "displayName": "Underway in the Sea of Crete / Cyclades area, Greece",
      "lookupSource": "manual backfill for v2.1.0; future entries can be generated by reverse geocoding"
    }
  },
  {
    "date": "25 Jun",
    "name": "Sea of Crete / Cyclades area",
    "phase": "ais",
    "lat": 36.6473,
    "lng": 24.3392,
    "location": {
      "country": "Greece",
      "region": "South Aegean",
      "seaArea": "Sea of Crete / Cyclades area",
      "displayName": "Underway in the Sea of Crete / Cyclades area, Greece",
      "lookupSource": "manual backfill for v2.1.0; future entries can be generated by reverse geocoding"
    }
  },
  {
    "date": "26-27 Jun",
    "name": "Zakynthos",
    "phase": "onboard",
    "lat": 37.788,
    "lng": 20.899,
    "location": {
      "country": "Greece",
      "region": "Ionian Islands",
      "island": "Zakynthos",
      "nearestSettlement": "Zakynthos Town",
      "displayName": "Zakynthos, near Zakynthos Town, Greece",
      "lookupSource": "manual backfill for v2.1.0; future entries can be generated by reverse geocoding"
    }
  },
  {
    "date": "28 Jun",
    "name": "Sami, Kefalonia",
    "phase": "onboard",
    "lat": 38.253,
    "lng": 20.647,
    "location": {
      "country": "Greece",
      "region": "Ionian Islands",
      "island": "Kefalonia",
      "nearestSettlement": "Sami",
      "displayName": "Kefalonia, near Sami, Greece",
      "lookupSource": "manual backfill for v2.1.0; future entries can be generated by reverse geocoding"
    }
  },
  {
    "date": "29-30 Jun",
    "name": "East Coast Ithaca / Underway",
    "phase": "onboard",
    "lat": 38.43164,
    "lng": 20.58843,
    "location": {
      "country": "Greece",
      "region": "Ionian Islands",
      "island": "Ithaca",
      "nearestSettlement": "Vathy / Frikes area",
      "displayName": "Ithaca, near Vathy / Frikes area, Greece",
      "lookupSource": "manual backfill for v2.1.0; future entries can be generated by reverse geocoding"
    }
  },
  {
    "date": "30 Jun",
    "name": "Paxi / Paxos",
    "phase": "onboard",
    "lat": 39.2026,
    "lng": 20.1858,
    "location": {
      "country": "Greece",
      "region": "Ionian Islands",
      "island": "Paxos",
      "nearestSettlement": "Gaios",
      "displayName": "Paxos, near Gaios, Greece",
      "lookupSource": "manual backfill for v2.1.0; future entries can be generated by reverse geocoding"
    }
  },
  {
    "date": "1 Jul",
    "name": "East Coast Corfu",
    "phase": "current",
    "lat": 39.620387,
    "lng": 19.926509,
    "note": "Manual map-click location. Public free AIS coordinates may lag, so this marker is intentionally labelled with its precision.",
    "location": {
      "lookupStatus": "ok",
      "lookupProvider": "OpenStreetMap Nominatim",
      "osmType": "node",
      "osmId": 1827940532,
      "displayName": "Near Κέρκυρα, Περιφέρεια Ιονίων Νήσων, Ελλάς",
      "shortName": "Κέρκυρα, Δήμος Κεντρικής Κέρκυρας και Διαποντίων Νήσων",
      "rawDisplayName": "Κέρκυρα, Δήμος Κεντρικής Κέρκυρας και Διαποντίων Νήσων, Περιφερειακή Ενότητα Κέρκυρας, Περιφέρεια Ιονίων Νήσων, Αποκεντρωμένη Διοίκηση Πελοποννήσου, Δυτικής Ελλάδας και Ιονίου, 491 00, Ελλάς",
      "country": "Ελλάς",
      "countryCode": "GR",
      "region": "Περιφέρεια Ιονίων Νήσων",
      "county": "Περιφερειακή Ενότητα Κέρκυρας",
      "municipality": "Δήμος Κεντρικής Κέρκυρας και Διαποντίων Νήσων",
      "island": null,
      "nearestPlace": "Κέρκυρα",
      "localArea": null
    }
  }
]